{"distrito": {"id": "lagoa_vermelha_soja", "nome": "LAGOA VERMELHA-SOJA", "regional": "RS SOJA", "codigo_regional": "RSSO", "uf": "RS", "ufs": ["RS"], "cultura_principal": "soja"}, "gerado_em": "2026-06-15T02:43:22+00:00", "municipios": [{"id": "alto_feliz", "nome": "ALTO FELIZ", "ibge": 4300570, "uf": "RS", "lat": -29.3919, "lon": -51.3123, "area_soja_ha": null, "clima": null}, {"id": "andre_da_rocha", "nome": "ANDRÉ DA ROCHA", "ibge": 4300661, "uf": "RS", "lat": -28.6283, "lon": -51.5797, "area_soja_ha": null, "clima": null}, {"id": "antonio_prado", "nome": "ANTÔNIO PRADO", "ibge": 4300802, "uf": "RS", "lat": -28.8565, "lon": -51.2883, "area_soja_ha": null, "clima": null}, {"id": "barao", "nome": "BARÃO", "ibge": 4301651, "uf": "RS", "lat": -29.3725, "lon": -51.4949, "area_soja_ha": null, "clima": null}, {"id": "bento_goncalves", "nome": "BENTO GONÇALVES", "ibge": 4302105, "uf": "RS", "lat": -29.1662, "lon": -51.5165, "area_soja_ha": null, "clima": null}, {"id": "boa_vista_do_sul", "nome": "BOA VISTA DO SUL", "ibge": 4302253, "uf": "RS", "lat": -29.3544, "lon": -51.6687, "area_soja_ha": null, "clima": null}, {"id": "bom_jesus", "nome": "BOM JESUS", "ibge": 4302303, "uf": "RS", "lat": -28.6697, "lon": -50.4295, "area_soja_ha": null, "clima": null}, {"id": "bom_principio", "nome": "BOM PRINCÍPIO", "ibge": 4302352, "uf": "RS", "lat": -29.4856, "lon": -51.3548, "area_soja_ha": null, "clima": null}, {"id": "cambara_do_sul", "nome": "CAMBARÁ DO SUL", "ibge": 4303608, "uf": "RS", "lat": -29.0474, "lon": -50.1465, "area_soja_ha": null, "clima": null}, {"id": "campestre_da_serra", "nome": "CAMPESTRE DA SERRA", "ibge": 4303673, "uf": "RS", "lat": -28.7926, "lon": -51.0941, "area_soja_ha": null, "clima": null}, {"id": "canela", "nome": "CANELA", "ibge": 4304408, "uf": "RS", "lat": -29.356, "lon": -50.8119, "area_soja_ha": null, "clima": null}, {"id": "capao_bonito_do_sul", "nome": "CAPÃO BONITO DO SUL", "ibge": 4304622, "uf": "RS", "lat": -28.1254, "lon": -51.3961, "area_soja_ha": null, "clima": null}, {"id": "carlos_barbosa", "nome": "CARLOS BARBOSA", "ibge": 4304804, "uf": "RS", "lat": -29.2969, "lon": -51.5028, "area_soja_ha": null, "clima": null}, {"id": "casca", "nome": "CASCA", "ibge": 4304903, "uf": "RS", "lat": -28.5605, "lon": -51.9815, "area_soja_ha": null, "clima": null}, {"id": "caseiros", "nome": "CASEIROS", "ibge": 4304952, "uf": "RS", "lat": -28.2582, "lon": -51.6861, "area_soja_ha": null, "clima": null}, {"id": "caxias_do_sul", "nome": "CAXIAS DO SUL", "ibge": 4305108, "uf": "RS", "lat": -29.1629, "lon": -51.1792, "area_soja_ha": null, "clima": null}, {"id": "ciriaco", "nome": "CIRÍACO", "ibge": 4305504, "uf": "RS", "lat": -28.3419, "lon": -51.8741, "area_soja_ha": null, "clima": null}, {"id": "coronel_pilar", "nome": "CORONEL PILAR", "ibge": 4305934, "uf": "RS", "lat": -29.2695, "lon": -51.6847, "area_soja_ha": null, "clima": null}, {"id": "cotipora", "nome": "COTIPORÃ", "ibge": 4305959, "uf": "RS", "lat": -28.9891, "lon": -51.6971, "area_soja_ha": null, "clima": null}, {"id": "david_canabarro", "nome": "DAVID CANABARRO", "ibge": 4306304, "uf": "RS", "lat": -28.3849, "lon": -51.8482, "area_soja_ha": null, "clima": null}, {"id": "doutor_ricardo", "nome": "DOUTOR RICARDO", "ibge": 4306759, "uf": "RS", "lat": -29.084, "lon": -51.9972, "area_soja_ha": null, "clima": null}, {"id": "esmeralda", "nome": "ESMERALDA", "ibge": 4307401, "uf": "RS", "lat": -28.0518, "lon": -51.1933, "area_soja_ha": null, "clima": null}, {"id": "fagundes_varela", "nome": "FAGUNDES VARELA", "ibge": 4307864, "uf": "RS", "lat": -28.8794, "lon": -51.7014, "area_soja_ha": null, "clima": null}, {"id": "farroupilha", "nome": "FARROUPILHA", "ibge": 4307906, "uf": "RS", "lat": -29.2227, "lon": -51.3419, "area_soja_ha": null, "clima": null}, {"id": "feliz", "nome": "FELIZ", "ibge": 4308102, "uf": "RS", "lat": -29.4527, "lon": -51.3032, "area_soja_ha": null, "clima": null}, {"id": "flores_da_cunha", "nome": "FLORES DA CUNHA", "ibge": 4308201, "uf": "RS", "lat": -29.0261, "lon": -51.1875, "area_soja_ha": null, "clima": null}, {"id": "garibaldi", "nome": "GARIBALDI", "ibge": 4308607, "uf": "RS", "lat": -29.259, "lon": -51.5352, "area_soja_ha": null, "clima": null}, {"id": "gramado", "nome": "GRAMADO", "ibge": 4309100, "uf": "RS", "lat": -29.3734, "lon": -50.8762, "area_soja_ha": null, "clima": null}, {"id": "guabiju", "nome": "GUABIJU", "ibge": 4309258, "uf": "RS", "lat": -28.5421, "lon": -51.6948, "area_soja_ha": null, "clima": null}, {"id": "guapore", "nome": "GUAPORÉ", "ibge": 4309407, "uf": "RS", "lat": -28.8399, "lon": -51.8895, "area_soja_ha": null, "clima": null}, {"id": "ibiraiaras", "nome": "IBIRAIARAS", "ibge": 4309902, "uf": "RS", "lat": -28.3741, "lon": -51.6377, "area_soja_ha": null, "clima": null}, {"id": "ilopolis", "nome": "ILÓPOLIS", "ibge": 4310306, "uf": "RS", "lat": -28.9282, "lon": -52.1258, "area_soja_ha": null, "clima": null}, {"id": "ipe", "nome": "IPÊ", "ibge": 4310439, "uf": "RS", "lat": -28.8171, "lon": -51.2859, "area_soja_ha": null, "clima": null}, {"id": "itapuca", "nome": "ITAPUCA", "ibge": 4310579, "uf": "RS", "lat": -28.7768, "lon": -52.1693, "area_soja_ha": null, "clima": null}, {"id": "jaquirana", "nome": "JAQUIRANA", "ibge": 4311122, "uf": "RS", "lat": -28.8811, "lon": -50.3637, "area_soja_ha": null, "clima": null}, {"id": "lagoa_vermelha", "nome": "LAGOA VERMELHA", "ibge": 4311304, "uf": "RS", "lat": -28.2093, "lon": -51.5248, "area_soja_ha": null, "clima": null}, {"id": "lindolfo_collor", "nome": "LINDOLFO COLLOR", "ibge": 4311627, "uf": "RS", "lat": -29.5859, "lon": -51.2141, "area_soja_ha": null, "clima": null}, {"id": "montauri", "nome": "MONTAURI", "ibge": 4312351, "uf": "RS", "lat": -28.6462, "lon": -52.0767, "area_soja_ha": null, "clima": null}, {"id": "monte_alegre_dos_campos", "nome": "MONTE ALEGRE DOS CAMPOS", "ibge": 4312377, "uf": "RS", "lat": -28.6805, "lon": -50.7834, "area_soja_ha": null, "clima": null}, {"id": "monte_belo_do_sul", "nome": "MONTE BELO DO SUL", "ibge": 4312385, "uf": "RS", "lat": -29.1607, "lon": -51.6333, "area_soja_ha": null, "clima": null}, {"id": "mucum", "nome": "MUÇUM", "ibge": 4312609, "uf": "RS", "lat": -29.163, "lon": -51.8714, "area_soja_ha": null, "clima": null}, {"id": "muitos_capoes", "nome": "MUITOS CAPÕES", "ibge": 4312617, "uf": "RS", "lat": -28.3132, "lon": -51.1836, "area_soja_ha": null, "clima": null}, {"id": "muliterno", "nome": "MULITERNO", "ibge": 4312625, "uf": "RS", "lat": -28.3253, "lon": -51.7697, "area_soja_ha": null, "clima": null}, {"id": "nova_araca", "nome": "NOVA ARAÇÁ", "ibge": 4312807, "uf": "RS", "lat": -28.6537, "lon": -51.7458, "area_soja_ha": null, "clima": null}, {"id": "nova_bassano", "nome": "NOVA BASSANO", "ibge": 4312906, "uf": "RS", "lat": -28.7291, "lon": -51.7072, "area_soja_ha": null, "clima": null}, {"id": "nova_brescia", "nome": "NOVA BRÉSCIA", "ibge": 4313003, "uf": "RS", "lat": -29.2182, "lon": -52.0319, "area_soja_ha": null, "clima": null}, {"id": "nova_padua", "nome": "NOVA PÁDUA", "ibge": 4313086, "uf": "RS", "lat": -29.0275, "lon": -51.3098, "area_soja_ha": null, "clima": null}, {"id": "nova_petropolis", "nome": "NOVA PETRÓPOLIS", "ibge": 4313201, "uf": "RS", "lat": -29.3741, "lon": -51.1136, "area_soja_ha": null, "clima": null}, {"id": "nova_prata", "nome": "NOVA PRATA", "ibge": 4313300, "uf": "RS", "lat": -28.7799, "lon": -51.6113, "area_soja_ha": null, "clima": null}, {"id": "nova_roma_do_sul", "nome": "NOVA ROMA DO SUL", "ibge": 4313359, "uf": "RS", "lat": -28.9882, "lon": -51.4095, "area_soja_ha": null, "clima": null}, {"id": "parai", "nome": "PARAÍ", "ibge": 4314001, "uf": "RS", "lat": -28.5964, "lon": -51.7896, "area_soja_ha": null, "clima": null}, {"id": "picada_cafe", "nome": "PICADA CAFÉ", "ibge": 4314423, "uf": "RS", "lat": -29.4464, "lon": -51.1367, "area_soja_ha": null, "clima": null}, {"id": "pinhal_da_serra", "nome": "PINHAL DA SERRA", "ibge": 4314464, "uf": "RS", "lat": -27.8751, "lon": -51.1673, "area_soja_ha": null, "clima": null}, {"id": "protasio_alves", "nome": "PROTÁSIO ALVES", "ibge": 4315172, "uf": "RS", "lat": -28.7572, "lon": -51.4757, "area_soja_ha": null, "clima": null}, {"id": "putinga", "nome": "PUTINGA", "ibge": 4315206, "uf": "RS", "lat": -29.0045, "lon": -52.1569, "area_soja_ha": null, "clima": null}, {"id": "santa_clara_do_sul", "nome": "SANTA CLARA DO SUL", "ibge": 4316758, "uf": "RS", "lat": -29.4747, "lon": -52.0843, "area_soja_ha": null, "clima": null}, {"id": "santa_maria_do_herval", "nome": "SANTA MARIA DO HERVAL", "ibge": 4316956, "uf": "RS", "lat": -29.4902, "lon": -50.9919, "area_soja_ha": null, "clima": null}, {"id": "santa_tereza", "nome": "SANTA TEREZA", "ibge": 4317251, "uf": "RS", "lat": -29.1655, "lon": -51.7351, "area_soja_ha": null, "clima": null}, {"id": "sao_domingos_do_sul", "nome": "SÃO DOMINGOS DO SUL", "ibge": 4318051, "uf": "RS", "lat": -28.5312, "lon": -51.886, "area_soja_ha": null, "clima": null}, {"id": "sao_francisco_de_paula", "nome": "SÃO FRANCISCO DE PAULA", "ibge": 4318200, "uf": "RS", "lat": -29.4404, "lon": -50.5828, "area_soja_ha": null, "clima": null}, {"id": "sao_jorge", "nome": "SÃO JORGE", "ibge": 4318440, "uf": "RS", "lat": -28.4984, "lon": -51.7064, "area_soja_ha": null, "clima": null}, {"id": "sao_jose_dos_ausentes", "nome": "SÃO JOSÉ DOS AUSENTES", "ibge": 4318622, "uf": "RS", "lat": -28.7476, "lon": -50.0677, "area_soja_ha": null, "clima": null}, {"id": "sao_marcos", "nome": "SÃO MARCOS", "ibge": 4319000, "uf": "RS", "lat": -28.9677, "lon": -51.0696, "area_soja_ha": null, "clima": null}, {"id": "sao_pedro_da_serra", "nome": "SÃO PEDRO DA SERRA", "ibge": 4319356, "uf": "RS", "lat": -29.4193, "lon": -51.5134, "area_soja_ha": null, "clima": null}, {"id": "sao_vendelino", "nome": "SÃO VENDELINO", "ibge": 4319752, "uf": "RS", "lat": -29.3729, "lon": -51.3675, "area_soja_ha": null, "clima": null}, {"id": "serafina_correa", "nome": "SERAFINA CORRÊA", "ibge": 4320404, "uf": "RS", "lat": -28.7126, "lon": -51.9352, "area_soja_ha": null, "clima": null}, {"id": "uniao_da_serra", "nome": "UNIÃO DA SERRA", "ibge": 4322350, "uf": "RS", "lat": -28.7833, "lon": -52.0238, "area_soja_ha": null, "clima": null}, {"id": "vacaria", "nome": "VACARIA", "ibge": 4322509, "uf": "RS", "lat": -28.5079, "lon": -50.9418, "area_soja_ha": null, "clima": null}, {"id": "vale_real", "nome": "VALE REAL", "ibge": 4322541, "uf": "RS", "lat": -29.3919, "lon": -51.2559, "area_soja_ha": null, "clima": null}, {"id": "vanini", "nome": "VANINI", "ibge": 4322558, "uf": "RS", "lat": -28.4758, "lon": -51.8447, "area_soja_ha": null, "clima": null}, {"id": "veranopolis", "nome": "VERANÓPOLIS", "ibge": 4322806, "uf": "RS", "lat": -28.9312, "lon": -51.5516, "area_soja_ha": null, "clima": null}, {"id": "vila_flores", "nome": "VILA FLORES", "ibge": 4323309, "uf": "RS", "lat": -28.8598, "lon": -51.5504, "area_soja_ha": null, "clima": null}, {"id": "vista_alegre_do_prata", "nome": "VISTA ALEGRE DO PRATA", "ibge": 4323606, "uf": "RS", "lat": -28.8052, "lon": -51.7947, "area_soja_ha": null, "clima": null}], "alertas": {"ativos": [], "ufs": ["RS"]}, "colheita": {"status": "pendente", "fonte": null, "itens": []}}