{"distrito": {"id": "porto_alegre_soja", "nome": "PORTO ALEGRE-SOJA", "regional": "RS SOJA", "codigo_regional": "RSSO", "uf": "RS", "ufs": ["RS"], "cultura_principal": "soja"}, "gerado_em": "2026-06-15T02:45:51+00:00", "municipios": [{"id": "alvorada", "nome": "ALVORADA", "ibge": 4300604, "uf": "RS", "lat": -29.9914, "lon": -51.0809, "area_soja_ha": null, "clima": null}, {"id": "amaral_ferrador", "nome": "AMARAL FERRADOR", "ibge": 4300638, "uf": "RS", "lat": -30.8756, "lon": -52.2509, "area_soja_ha": null, "clima": null}, {"id": "anta_gorda", "nome": "ANTA GORDA", "ibge": 4300703, "uf": "RS", "lat": -28.9698, "lon": -52.0102, "area_soja_ha": null, "clima": null}, {"id": "arambare", "nome": "ARAMBARÉ", "ibge": 4300851, "uf": "RS", "lat": -30.9092, "lon": -51.5046, "area_soja_ha": null, "clima": null}, {"id": "ararica", "nome": "ARARICÁ", "ibge": 4300877, "uf": "RS", "lat": -29.6168, "lon": -50.9291, "area_soja_ha": null, "clima": null}, {"id": "arroio_do_meio", "nome": "ARROIO DO MEIO", "ibge": 4301008, "uf": "RS", "lat": -29.4014, "lon": -51.9557, "area_soja_ha": null, "clima": null}, {"id": "arroio_do_sal", "nome": "ARROIO DO SAL", "ibge": 4301057, "uf": "RS", "lat": -29.5439, "lon": -49.8895, "area_soja_ha": null, "clima": null}, {"id": "arroio_dos_ratos", "nome": "ARROIO DOS RATOS", "ibge": 4301107, "uf": "RS", "lat": -30.0875, "lon": -51.7275, "area_soja_ha": null, "clima": null}, {"id": "arvorezinha", "nome": "ARVOREZINHA", "ibge": 4301404, "uf": "RS", "lat": -28.8737, "lon": -52.1781, "area_soja_ha": null, "clima": null}, {"id": "balneario_pinhal", "nome": "BALNEÁRIO PINHAL", "ibge": 4301636, "uf": "RS", "lat": -30.2419, "lon": -50.2337, "area_soja_ha": null, "clima": null}, {"id": "barao_do_triunfo", "nome": "BARÃO DO TRIUNFO", "ibge": 4301750, "uf": "RS", "lat": -30.3891, "lon": -51.7384, "area_soja_ha": null, "clima": null}, {"id": "barra_do_ribeiro", "nome": "BARRA DO RIBEIRO", "ibge": 4301909, "uf": "RS", "lat": -30.2939, "lon": -51.3014, "area_soja_ha": null, "clima": null}, {"id": "bom_retiro_do_sul", "nome": "BOM RETIRO DO SUL", "ibge": 4302402, "uf": "RS", "lat": -29.6071, "lon": -51.9456, "area_soja_ha": null, "clima": null}, {"id": "boqueirao_do_leao", "nome": "BOQUEIRÃO DO LEÃO", "ibge": 4302451, "uf": "RS", "lat": -29.3046, "lon": -52.4284, "area_soja_ha": null, "clima": null}, {"id": "brochier", "nome": "BROCHIER", "ibge": 4302659, "uf": "RS", "lat": -29.5501, "lon": -51.5945, "area_soja_ha": null, "clima": null}, {"id": "butia", "nome": "BUTIÁ", "ibge": 4302709, "uf": "RS", "lat": -30.1179, "lon": -51.9601, "area_soja_ha": null, "clima": null}, {"id": "cachoeirinha", "nome": "CACHOEIRINHA", "ibge": 4303103, "uf": "RS", "lat": -29.9472, "lon": -51.1016, "area_soja_ha": null, "clima": null}, {"id": "camaqua", "nome": "CAMAQUÃ", "ibge": 4303509, "uf": "RS", "lat": -30.8489, "lon": -51.8043, "area_soja_ha": null, "clima": null}, {"id": "campo_bom", "nome": "CAMPO BOM", "ibge": 4303905, "uf": "RS", "lat": -29.6747, "lon": -51.0606, "area_soja_ha": null, "clima": null}, {"id": "candelaria", "nome": "CANDELÁRIA", "ibge": 4304200, "uf": "RS", "lat": -29.6684, "lon": -52.7895, "area_soja_ha": null, "clima": null}, {"id": "canoas", "nome": "CANOAS", "ibge": 4304606, "uf": "RS", "lat": -29.9128, "lon": -51.1857, "area_soja_ha": null, "clima": null}, {"id": "canudos_do_vale", "nome": "CANUDOS DO VALE", "ibge": 4304614, "uf": "RS", "lat": -29.3271, "lon": -52.2374, "area_soja_ha": null, "clima": null}, {"id": "capao_da_canoa", "nome": "CAPÃO DA CANOA", "ibge": 4304630, "uf": "RS", "lat": -29.7642, "lon": -50.0282, "area_soja_ha": null, "clima": null}, {"id": "capela_de_santana", "nome": "CAPELA DE SANTANA", "ibge": 4304689, "uf": "RS", "lat": -29.6961, "lon": -51.328, "area_soja_ha": null, "clima": null}, {"id": "capitao", "nome": "CAPITÃO", "ibge": 4304697, "uf": "RS", "lat": -29.2674, "lon": -51.9853, "area_soja_ha": null, "clima": null}, {"id": "capivari_do_sul", "nome": "CAPIVARI DO SUL", "ibge": 4304671, "uf": "RS", "lat": -30.1383, "lon": -50.5152, "area_soja_ha": null, "clima": null}, {"id": "caraa", "nome": "CARAÁ", "ibge": 4304713, "uf": "RS", "lat": -29.7869, "lon": -50.4316, "area_soja_ha": null, "clima": null}, {"id": "cerro_branco", "nome": "CERRO BRANCO", "ibge": 4305132, "uf": "RS", "lat": -29.657, "lon": -52.9406, "area_soja_ha": null, "clima": null}, {"id": "cerro_grande_do_sul", "nome": "CERRO GRANDE DO SUL", "ibge": 4305173, "uf": "RS", "lat": -30.5905, "lon": -51.7418, "area_soja_ha": null, "clima": null}, {"id": "charqueadas", "nome": "CHARQUEADAS", "ibge": 4305355, "uf": "RS", "lat": -29.9625, "lon": -51.6289, "area_soja_ha": null, "clima": null}, {"id": "chuvisca", "nome": "CHUVISCA", "ibge": 4305447, "uf": "RS", "lat": -30.7504, "lon": -51.9737, "area_soja_ha": null, "clima": null}, {"id": "cidreira", "nome": "CIDREIRA", "ibge": 4305454, "uf": "RS", "lat": -30.1604, "lon": -50.2337, "area_soja_ha": null, "clima": null}, {"id": "colinas", "nome": "COLINAS", "ibge": 4305587, "uf": "RS", "lat": -29.3948, "lon": -51.8556, "area_soja_ha": null, "clima": null}, {"id": "coqueiro_baixo", "nome": "COQUEIRO BAIXO", "ibge": 4305835, "uf": "RS", "lat": -29.1802, "lon": -52.0942, "area_soja_ha": null, "clima": null}, {"id": "cristal", "nome": "CRISTAL", "ibge": 4306056, "uf": "RS", "lat": -31.0046, "lon": -52.0436, "area_soja_ha": null, "clima": null}, {"id": "cruzeiro_do_sul", "nome": "CRUZEIRO DO SUL", "ibge": 4306205, "uf": "RS", "lat": -29.5148, "lon": -51.9928, "area_soja_ha": null, "clima": null}, {"id": "dois_irmaos", "nome": "DOIS IRMÃOS", "ibge": 4306403, "uf": "RS", "lat": -29.5836, "lon": -51.0898, "area_soja_ha": null, "clima": null}, {"id": "dois_lajeados", "nome": "DOIS LAJEADOS", "ibge": 4306452, "uf": "RS", "lat": -28.983, "lon": -51.8396, "area_soja_ha": null, "clima": null}, {"id": "dom_feliciano", "nome": "DOM FELICIANO", "ibge": 4306502, "uf": "RS", "lat": -30.7004, "lon": -52.1026, "area_soja_ha": null, "clima": null}, {"id": "dom_pedro_de_alcantara", "nome": "DOM PEDRO DE ALCÂNTARA", "ibge": 4306551, "uf": "RS", "lat": -29.3639, "lon": -49.853, "area_soja_ha": null, "clima": null}, {"id": "eldorado_do_sul", "nome": "ELDORADO DO SUL", "ibge": 4306767, "uf": "RS", "lat": -30.0847, "lon": -51.6187, "area_soja_ha": null, "clima": null}, {"id": "encantado", "nome": "ENCANTADO", "ibge": 4306809, "uf": "RS", "lat": -29.2351, "lon": -51.8703, "area_soja_ha": null, "clima": null}, {"id": "estancia_velha", "nome": "ESTÂNCIA VELHA", "ibge": 4307609, "uf": "RS", "lat": -29.6535, "lon": -51.1843, "area_soja_ha": null, "clima": null}, {"id": "esteio", "nome": "ESTEIO", "ibge": 4307708, "uf": "RS", "lat": -29.852, "lon": -51.1841, "area_soja_ha": null, "clima": null}, {"id": "estrela", "nome": "ESTRELA", "ibge": 4307807, "uf": "RS", "lat": -29.5002, "lon": -51.9495, "area_soja_ha": null, "clima": null}, {"id": "fazenda_vilanova", "nome": "FAZENDA VILANOVA", "ibge": 4308078, "uf": "RS", "lat": -29.5885, "lon": -51.8217, "area_soja_ha": null, "clima": null}, {"id": "forquetinha", "nome": "FORQUETINHA", "ibge": 4308433, "uf": "RS", "lat": -29.3828, "lon": -52.0981, "area_soja_ha": null, "clima": null}, {"id": "general_camara", "nome": "GENERAL CÂMARA", "ibge": 4308805, "uf": "RS", "lat": -29.9032, "lon": -51.7612, "area_soja_ha": null, "clima": null}, {"id": "glorinha", "nome": "GLORINHA", "ibge": 4309050, "uf": "RS", "lat": -29.8798, "lon": -50.7734, "area_soja_ha": null, "clima": null}, {"id": "gramado_xavier", "nome": "GRAMADO XAVIER", "ibge": 4309159, "uf": "RS", "lat": -29.2706, "lon": -52.5795, "area_soja_ha": null, "clima": null}, {"id": "gravatai", "nome": "GRAVATAÍ", "ibge": 4309209, "uf": "RS", "lat": -29.9413, "lon": -50.9869, "area_soja_ha": null, "clima": null}, {"id": "guaiba", "nome": "GUAÍBA", "ibge": 4309308, "uf": "RS", "lat": -30.1086, "lon": -51.3233, "area_soja_ha": null, "clima": null}, {"id": "harmonia", "nome": "HARMONIA", "ibge": 4309555, "uf": "RS", "lat": -29.5456, "lon": -51.4185, "area_soja_ha": null, "clima": null}, {"id": "herveiras", "nome": "HERVEIRAS", "ibge": 4309571, "uf": "RS", "lat": -29.4552, "lon": -52.6553, "area_soja_ha": null, "clima": null}, {"id": "ibarama", "nome": "IBARAMA", "ibge": 4309753, "uf": "RS", "lat": -29.4203, "lon": -53.1295, "area_soja_ha": null, "clima": null}, {"id": "igrejinha", "nome": "IGREJINHA", "ibge": 4310108, "uf": "RS", "lat": -29.5693, "lon": -50.7919, "area_soja_ha": null, "clima": null}, {"id": "imbe", "nome": "IMBÉ", "ibge": 4310330, "uf": "RS", "lat": -29.9753, "lon": -50.1281, "area_soja_ha": null, "clima": null}, {"id": "imigrante", "nome": "IMIGRANTE", "ibge": 4310363, "uf": "RS", "lat": -29.3508, "lon": -51.7748, "area_soja_ha": null, "clima": null}, {"id": "itati", "nome": "ITATI", "ibge": 4310652, "uf": "RS", "lat": -29.4974, "lon": -50.1016, "area_soja_ha": null, "clima": null}, {"id": "ivoti", "nome": "IVOTI", "ibge": 4310801, "uf": "RS", "lat": -29.5995, "lon": -51.1533, "area_soja_ha": null, "clima": null}, {"id": "lagoa_bonita_do_sul", "nome": "LAGOA BONITA DO SUL", "ibge": 4311239, "uf": "RS", "lat": -29.4939, "lon": -53.017, "area_soja_ha": null, "clima": null}, {"id": "lajeado", "nome": "LAJEADO", "ibge": 4311403, "uf": "RS", "lat": -29.4591, "lon": -51.9644, "area_soja_ha": null, "clima": null}, {"id": "linha_nova", "nome": "LINHA NOVA", "ibge": 4311643, "uf": "RS", "lat": -29.4679, "lon": -51.2003, "area_soja_ha": null, "clima": null}, {"id": "mampituba", "nome": "MAMPITUBA", "ibge": 4311734, "uf": "RS", "lat": -29.2136, "lon": -49.9311, "area_soja_ha": null, "clima": null}, {"id": "maquine", "nome": "MAQUINÉ", "ibge": 4311775, "uf": "RS", "lat": -29.6798, "lon": -50.2079, "area_soja_ha": null, "clima": null}, {"id": "marata", "nome": "MARATÁ", "ibge": 4311791, "uf": "RS", "lat": -29.5457, "lon": -51.5573, "area_soja_ha": null, "clima": null}, {"id": "mariana_pimentel", "nome": "MARIANA PIMENTEL", "ibge": 4311981, "uf": "RS", "lat": -30.353, "lon": -51.5803, "area_soja_ha": null, "clima": null}, {"id": "marques_de_souza", "nome": "MARQUES DE SOUZA", "ibge": 4312054, "uf": "RS", "lat": -29.3311, "lon": -52.0973, "area_soja_ha": null, "clima": null}, {"id": "mato_leitao", "nome": "MATO LEITÃO", "ibge": 4312153, "uf": "RS", "lat": -29.5285, "lon": -52.1278, "area_soja_ha": null, "clima": null}, {"id": "minas_do_leao", "nome": "MINAS DO LEÃO", "ibge": 4312252, "uf": "RS", "lat": -30.1346, "lon": -52.0423, "area_soja_ha": null, "clima": null}, {"id": "montenegro", "nome": "MONTENEGRO", "ibge": 4312401, "uf": "RS", "lat": -29.6824, "lon": -51.4679, "area_soja_ha": null, "clima": null}, {"id": "morrinhos_do_sul", "nome": "MORRINHOS DO SUL", "ibge": 4312443, "uf": "RS", "lat": -29.3578, "lon": -49.9328, "area_soja_ha": null, "clima": null}, {"id": "morro_reuter", "nome": "MORRO REUTER", "ibge": 4312476, "uf": "RS", "lat": -29.5379, "lon": -51.0811, "area_soja_ha": null, "clima": null}, {"id": "mostardas", "nome": "MOSTARDAS", "ibge": 4312500, "uf": "RS", "lat": -31.1054, "lon": -50.9167, "area_soja_ha": null, "clima": null}, {"id": "nova_hartz", "nome": "NOVA HARTZ", "ibge": 4313060, "uf": "RS", "lat": -29.5808, "lon": -50.9051, "area_soja_ha": null, "clima": null}, {"id": "nova_santa_rita", "nome": "NOVA SANTA RITA", "ibge": 4313375, "uf": "RS", "lat": -29.8525, "lon": -51.2837, "area_soja_ha": null, "clima": null}, {"id": "novo_hamburgo", "nome": "NOVO HAMBURGO", "ibge": 4313409, "uf": "RS", "lat": -29.6875, "lon": -51.1328, "area_soja_ha": null, "clima": null}, {"id": "osorio", "nome": "OSÓRIO", "ibge": 4313508, "uf": "RS", "lat": -29.8881, "lon": -50.2667, "area_soja_ha": null, "clima": null}, {"id": "palmares_do_sul", "nome": "PALMARES DO SUL", "ibge": 4313656, "uf": "RS", "lat": -30.2535, "lon": -50.5103, "area_soja_ha": null, "clima": null}, {"id": "pareci_novo", "nome": "PARECI NOVO", "ibge": 4314035, "uf": "RS", "lat": -29.6365, "lon": -51.3974, "area_soja_ha": null, "clima": null}, {"id": "parobe", "nome": "PAROBÉ", "ibge": 4314050, "uf": "RS", "lat": -29.6243, "lon": -50.8312, "area_soja_ha": null, "clima": null}, {"id": "passa_sete", "nome": "PASSA SETE", "ibge": 4314068, "uf": "RS", "lat": -29.4577, "lon": -52.9599, "area_soja_ha": null, "clima": null}, {"id": "passo_do_sobrado", "nome": "PASSO DO SOBRADO", "ibge": 4314076, "uf": "RS", "lat": -29.748, "lon": -52.2748, "area_soja_ha": null, "clima": null}, {"id": "paverama", "nome": "PAVERAMA", "ibge": 4314159, "uf": "RS", "lat": -29.5486, "lon": -51.7339, "area_soja_ha": null, "clima": null}, {"id": "poco_das_antas", "nome": "POÇO DAS ANTAS", "ibge": 4314753, "uf": "RS", "lat": -29.4481, "lon": -51.6719, "area_soja_ha": null, "clima": null}, {"id": "portao", "nome": "PORTÃO", "ibge": 4314803, "uf": "RS", "lat": -29.7015, "lon": -51.2429, "area_soja_ha": null, "clima": null}, {"id": "porto_alegre", "nome": "PORTO ALEGRE", "ibge": 4314902, "uf": "RS", "lat": -30.0318, "lon": -51.2065, "area_soja_ha": null, "clima": null}, {"id": "pouso_novo", "nome": "POUSO NOVO", "ibge": 4315131, "uf": "RS", "lat": -29.1738, "lon": -52.2136, "area_soja_ha": null, "clima": null}, {"id": "presidente_lucena", "nome": "PRESIDENTE LUCENA", "ibge": 4315149, "uf": "RS", "lat": -29.5175, "lon": -51.1798, "area_soja_ha": null, "clima": null}, {"id": "progresso", "nome": "PROGRESSO", "ibge": 4315156, "uf": "RS", "lat": -29.2441, "lon": -52.3197, "area_soja_ha": null, "clima": null}, {"id": "relvado", "nome": "RELVADO", "ibge": 4315453, "uf": "RS", "lat": -29.1164, "lon": -52.0778, "area_soja_ha": null, "clima": null}, {"id": "rio_grande", "nome": "RIO GRANDE", "ibge": 4315602, "uf": "RS", "lat": -32.0349, "lon": -52.1071, "area_soja_ha": null, "clima": null}, {"id": "riozinho", "nome": "RIOZINHO", "ibge": 4315750, "uf": "RS", "lat": -29.639, "lon": -50.4488, "area_soja_ha": null, "clima": null}, {"id": "roca_sales", "nome": "ROCA SALES", "ibge": 4315800, "uf": "RS", "lat": -29.2884, "lon": -51.8658, "area_soja_ha": null, "clima": null}, {"id": "rolante", "nome": "ROLANTE", "ibge": 4316006, "uf": "RS", "lat": -29.6462, "lon": -50.5819, "area_soja_ha": null, "clima": null}, {"id": "salvador_do_sul", "nome": "SALVADOR DO SUL", "ibge": 4316501, "uf": "RS", "lat": -29.4386, "lon": -51.5077, "area_soja_ha": null, "clima": null}, {"id": "santa_cruz_do_sul", "nome": "SANTA CRUZ DO SUL", "ibge": 4316808, "uf": "RS", "lat": -29.722, "lon": -52.4343, "area_soja_ha": null, "clima": null}, {"id": "santo_antonio_da_patrulha", "nome": "SANTO ANTÔNIO DA PATRULHA", "ibge": 4317608, "uf": "RS", "lat": -29.8268, "lon": -50.5175, "area_soja_ha": null, "clima": null}, {"id": "sao_jeronimo", "nome": "SÃO JERÔNIMO", "ibge": 4318408, "uf": "RS", "lat": -29.9716, "lon": -51.7251, "area_soja_ha": null, "clima": null}, {"id": "sao_jose_do_herval", "nome": "SÃO JOSÉ DO HERVAL", "ibge": 4318465, "uf": "RS", "lat": -29.052, "lon": -52.295, "area_soja_ha": null, "clima": null}, {"id": "sao_jose_do_hortencio", "nome": "SÃO JOSÉ DO HORTÊNCIO", "ibge": 4318481, "uf": "RS", "lat": -29.528, "lon": -51.245, "area_soja_ha": null, "clima": null}, {"id": "sao_jose_do_norte", "nome": "SÃO JOSÉ DO NORTE", "ibge": 4318507, "uf": "RS", "lat": -32.0151, "lon": -52.0331, "area_soja_ha": null, "clima": null}, {"id": "sao_jose_do_sul", "nome": "SÃO JOSÉ DO SUL", "ibge": 4318614, "uf": "RS", "lat": -29.5448, "lon": -51.4821, "area_soja_ha": null, "clima": null}, {"id": "sao_leopoldo", "nome": "SÃO LEOPOLDO", "ibge": 4318705, "uf": "RS", "lat": -29.7545, "lon": -51.1498, "area_soja_ha": null, "clima": null}, {"id": "sao_lourenco_do_sul", "nome": "SÃO LOURENÇO DO SUL", "ibge": 4318804, "uf": "RS", "lat": -31.3564, "lon": -51.9715, "area_soja_ha": null, "clima": null}, {"id": "sao_sebastiao_do_cai", "nome": "SÃO SEBASTIÃO DO CAÍ", "ibge": 4319505, "uf": "RS", "lat": -29.5885, "lon": -51.3749, "area_soja_ha": null, "clima": null}, {"id": "sao_valentim_do_sul", "nome": "SÃO VALENTIM DO SUL", "ibge": 4319711, "uf": "RS", "lat": -29.0451, "lon": -51.7684, "area_soja_ha": null, "clima": null}, {"id": "sapiranga", "nome": "SAPIRANGA", "ibge": 4319901, "uf": "RS", "lat": -29.6349, "lon": -51.0064, "area_soja_ha": null, "clima": null}, {"id": "sapucaia_do_sul", "nome": "SAPUCAIA DO SUL", "ibge": 4320008, "uf": "RS", "lat": -29.8276, "lon": -51.145, "area_soja_ha": null, "clima": null}, {"id": "segredo", "nome": "SEGREDO", "ibge": 4320263, "uf": "RS", "lat": -29.3523, "lon": -52.9767, "area_soja_ha": null, "clima": null}, {"id": "sentinela_do_sul", "nome": "SENTINELA DO SUL", "ibge": 4320354, "uf": "RS", "lat": -30.6107, "lon": -51.5862, "area_soja_ha": null, "clima": null}, {"id": "serio", "nome": "SÉRIO", "ibge": 4320453, "uf": "RS", "lat": -29.3904, "lon": -52.2685, "area_soja_ha": null, "clima": null}, {"id": "sertao_santana", "nome": "SERTÃO SANTANA", "ibge": 4320552, "uf": "RS", "lat": -30.4562, "lon": -51.6017, "area_soja_ha": null, "clima": null}, {"id": "sinimbu", "nome": "SINIMBU", "ibge": 4320677, "uf": "RS", "lat": -29.5357, "lon": -52.5304, "area_soja_ha": null, "clima": null}, {"id": "tabai", "nome": "TABAÍ", "ibge": 4320859, "uf": "RS", "lat": -29.643, "lon": -51.6823, "area_soja_ha": null, "clima": null}, {"id": "tapes", "nome": "TAPES", "ibge": 4321105, "uf": "RS", "lat": -30.6683, "lon": -51.3991, "area_soja_ha": null, "clima": null}, {"id": "taquara", "nome": "TAQUARA", "ibge": 4321204, "uf": "RS", "lat": -29.6505, "lon": -50.7753, "area_soja_ha": null, "clima": null}, {"id": "taquari", "nome": "TAQUARI", "ibge": 4321303, "uf": "RS", "lat": -29.7943, "lon": -51.8653, "area_soja_ha": null, "clima": null}, {"id": "tavares", "nome": "TAVARES", "ibge": 4321352, "uf": "RS", "lat": -31.2843, "lon": -51.088, "area_soja_ha": null, "clima": null}, {"id": "terra_de_areia", "nome": "TERRA DE AREIA", "ibge": 4321436, "uf": "RS", "lat": -29.5782, "lon": -50.0644, "area_soja_ha": null, "clima": null}, {"id": "teutonia", "nome": "TEUTÔNIA", "ibge": 4321451, "uf": "RS", "lat": -29.4482, "lon": -51.8044, "area_soja_ha": null, "clima": null}, {"id": "torres", "nome": "TORRES", "ibge": 4321501, "uf": "RS", "lat": -29.3334, "lon": -49.7333, "area_soja_ha": null, "clima": null}, {"id": "tramandai", "nome": "TRAMANDAÍ", "ibge": 4321600, "uf": "RS", "lat": -29.9841, "lon": -50.1322, "area_soja_ha": null, "clima": null}, {"id": "travesseiro", "nome": "TRAVESSEIRO", "ibge": 4321626, "uf": "RS", "lat": -29.2977, "lon": -52.0532, "area_soja_ha": null, "clima": null}, {"id": "tres_cachoeiras", "nome": "TRÊS CACHOEIRAS", "ibge": 4321667, "uf": "RS", "lat": -29.4487, "lon": -49.9275, "area_soja_ha": null, "clima": null}, {"id": "tres_coroas", "nome": "TRÊS COROAS", "ibge": 4321709, "uf": "RS", "lat": -29.5137, "lon": -50.7739, "area_soja_ha": null, "clima": null}, {"id": "tres_forquilhas", "nome": "TRÊS FORQUILHAS", "ibge": 4321832, "uf": "RS", "lat": -29.5384, "lon": -50.0708, "area_soja_ha": null, "clima": null}, {"id": "triunfo", "nome": "TRIUNFO", "ibge": 4322004, "uf": "RS", "lat": -29.9291, "lon": -51.7075, "area_soja_ha": null, "clima": null}, {"id": "tupandi", "nome": "TUPANDI", "ibge": 4322251, "uf": "RS", "lat": -29.4772, "lon": -51.4174, "area_soja_ha": null, "clima": null}, {"id": "vale_do_sol", "nome": "VALE DO SOL", "ibge": 4322533, "uf": "RS", "lat": -29.5967, "lon": -52.6839, "area_soja_ha": null, "clima": null}, {"id": "vale_verde", "nome": "VALE VERDE", "ibge": 4322525, "uf": "RS", "lat": -29.7864, "lon": -52.1857, "area_soja_ha": null, "clima": null}, {"id": "venancio_aires", "nome": "VENÂNCIO AIRES", "ibge": 4322608, "uf": "RS", "lat": -29.6143, "lon": -52.1932, "area_soja_ha": null, "clima": null}, {"id": "vera_cruz", "nome": "VERA CRUZ", "ibge": 4322707, "uf": "RS", "lat": -29.7184, "lon": -52.5152, "area_soja_ha": null, "clima": null}, {"id": "vespasiano_correa", "nome": "VESPASIANO CORRÊA", "ibge": 4322855, "uf": "RS", "lat": -29.0655, "lon": -51.8625, "area_soja_ha": null, "clima": null}, {"id": "viamao", "nome": "VIAMÃO", "ibge": 4323002, "uf": "RS", "lat": -30.0819, "lon": -51.0194, "area_soja_ha": null, "clima": null}, {"id": "westfalia", "nome": "WESTFÁLIA", "ibge": 4323770, "uf": "RS", "lat": -29.4263, "lon": -51.7645, "area_soja_ha": null, "clima": null}, {"id": "xangri_la", "nome": "XANGRI-LÁ", "ibge": 4323804, "uf": "RS", "lat": -29.8065, "lon": -50.0519, "area_soja_ha": null, "clima": null}], "alertas": {"ativos": [], "ufs": ["RS"]}, "colheita": {"status": "pendente", "fonte": null, "itens": []}}